% program   : RTKPOST ver.2.4.2
% inp file  : D:\Workspace\pixhawk\AirSurvey\08Sept2016\PX4Log\60.BIN.obs
% inp file  : D:\Workspace\pixhawk\AirSurvey\08Sept2016\LeicaData\Base\6140252h41.16o
% inp file  : D:\Workspace\pixhawk\AirSurvey\08Sept2016\LeicaData\Base\6140252h41.16n
% inp file  : D:\Workspace\pixhawk\AirSurvey\08Sept2016\GCS\igr19134.clk
% obs start : 2016/09/08 08:16:50.0 GPST (week1913 375410.0s)
% obs end   : 2016/09/08 08:24:14.6 GPST (week1913 375854.6s)
% pos mode  : kinematic
% freqs     : L1
% solution  : forward
% elev mask : 20.0 deg
% dynamics  : off
% tidecorr  : off
% ionos opt : broadcast
% tropo opt : saastamoinen
% ephemeris : broadcast
% navi sys  : gps glonass
% amb res   : fix and hold
% amb glo   : on
% val thres : 4.0
% antenna1  :                       ( 0.0000  0.0000  0.0000)
% antenna2  :                       ( 0.0000  0.0000  0.0000)
% ref pos   : 50.966976592   11.609199139   358.6624
%
% (lat/lon/height=WGS84/ellipsoidal,Q=1:fix,2:float,3:sbas,4:dgps,5:single,6:ppp,ns=# of satellites)
%  GPST          latitude(deg) longitude(deg)  height(m)   Q  ns   sdn(m)   sde(m)   sdu(m)  sdne(m)  sdeu(m)  sdun(m) age(s)  ratio
1913 375410.000   50.966880083   11.609110476   357.5615   2   6   0.7711   0.5934   2.3227   0.1077   0.4385  -0.2166   0.00    1.9
1913 375410.200   50.966879288   11.609109578   357.7623   1   6   0.0078   0.0060   0.0236   0.0011   0.0043  -0.0025   0.20   25.1
1913 375410.400   50.966880369   11.609110662   358.5903   2   6   0.7711   0.5934   2.3228   0.1076   0.4386  -0.2165   0.40    3.0
1913 375410.600   50.966880308   11.609109850   358.5113   2   6   0.7710   0.5934   2.3229   0.1076   0.4387  -0.2165   0.60    1.3
1913 375410.800   50.966880618   11.609109523   357.8888   2   6   0.7710   0.5934   2.3230   0.1075   0.4387  -0.2165   0.80    2.3
1913 375411.000   50.966880730   11.609109722   357.8321   2   6   0.5479   0.4216   1.6534   0.0775   0.3075  -0.1641   0.00    1.4
1913 375411.200   50.966881021   11.609110500   357.9206   2   6   0.4481   0.3448   1.3530   0.0637   0.2503  -0.1370   0.20    1.3
1913 375411.400   50.966881221   11.609110994   357.8664   2   6   0.3884   0.2989   1.1731   0.0553   0.2164  -0.1199   0.40    1.4
1913 375411.600   50.966881485   11.609111168   357.8763   2   6   0.3476   0.2675   1.0500   0.0495   0.1934  -0.1080   0.60    1.4
1913 375411.800   50.966881758   11.609111253   357.8816   2   6   0.3174   0.2442   0.9590   0.0452   0.1765  -0.0991   0.80    1.3
1913 375412.000   50.966882086   11.609111269   357.8924   2   6   0.2939   0.2262   0.8881   0.0419   0.1633  -0.0920   0.00    3.1
1913 375412.200   50.966879726   11.609109056   357.7678   1   6   0.0078   0.0059   0.0236   0.0010   0.0043  -0.0025   0.20    4.3
1913 375412.400   50.966879644   11.609109126   357.7819   1   6   0.0078   0.0059   0.0237   0.0008   0.0043  -0.0025   0.40    5.9
1913 375412.600   50.966879508   11.609109517   357.7835   1   6   0.0079   0.0060   0.0238   0.0006   0.0044  -0.0023   0.60    5.3
1913 375412.800   50.966879460   11.609109827   357.7815   1   6   0.0079   0.0061   0.0239   0.0014   0.0045  -0.0021   0.80    4.3
1913 375413.000   50.966879386   11.609109955   357.7629   1   6   0.0078   0.0060   0.0236   0.0008   0.0043  -0.0025   0.00    4.1
1913 375413.200   50.966882084   11.609112569   357.6150   2   6   0.2159   0.1661   0.6523   0.0307   0.1198  -0.0685   0.20    4.0
1913 375413.400   50.966882032   11.609112890   357.5887   2   6   0.2080   0.1601   0.6286   0.0296   0.1154  -0.0661   0.40    3.8
1913 375413.600   50.966879285   11.609110521   357.7587   1   6   0.0079   0.0060   0.0238   0.0010   0.0044  -0.0024   0.60    4.0
1913 375413.800   50.966881866   11.609113157   357.5408   2   6   0.1946   0.1498   0.5880   0.0276   0.1080  -0.0620   0.80    3.8
1913 375414.000   50.966881730   11.609113334   357.5039   2   6   0.1888   0.1453   0.5704   0.0268   0.1047  -0.0603   0.00    3.5
1913 375414.200   50.966881634   11.609113441   357.4987   2   6   0.1835   0.1413   0.5544   0.0260   0.1018  -0.0587   0.20    3.6
1913 375414.400   50.966881534   11.609113552   357.4948   2   6   0.1786   0.1375   0.5396   0.0253   0.0991  -0.0572   0.40    3.7
1913 375414.600   50.966879201   11.609110864   357.7379   1   6   0.0078   0.0061   0.0238   0.0012   0.0044  -0.0024   0.60    4.0
1913 375414.800   50.966879252   11.609110906   357.7399   1   6   0.0078   0.0061   0.0239   0.0010   0.0045  -0.0024   0.80    4.1
1913 375415.000   50.966879270   11.609110946   357.7561   1   6   0.0078   0.0060   0.0236   0.0013   0.0043  -0.0024   0.00    4.2
1913 375415.200   50.966879287   11.609110933   357.7521   1   6   0.0078   0.0060   0.0236   0.0011   0.0043  -0.0025   0.20    4.2
1913 375415.400   50.966879338   11.609110923   357.7522   1   6   0.0079   0.0060   0.0237   0.0012   0.0044  -0.0024   0.40    4.3
1913 375415.600   50.966879365   11.609110959   357.7491   1   6   0.0078   0.0060   0.0238   0.0009   0.0044  -0.0023   0.60    4.3
1913 375415.800   50.966879386   11.609110987   357.7489   1   6   0.0079   0.0060   0.0239   0.0004   0.0045  -0.0022   0.80    4.6
1913 375416.000   50.966879393   11.609110923   357.7452   1   6   0.0078   0.0060   0.0236   0.0011   0.0043  -0.0025   0.00    4.7
1913 375416.200   50.966879435   11.609110837   357.7236   1   6   0.0079   0.0060   0.0236   0.0011   0.0043  -0.0024   0.20    5.1
1913 375416.400   50.966879513   11.609110556   357.7317   1   6   0.0079   0.0061   0.0237   0.0012   0.0044  -0.0024   0.40    5.1
1913 375416.600   50.966879541   11.609110522   357.7287   1   6   0.0078   0.0061   0.0238   0.0013   0.0044  -0.0024   0.60  999.9
1913 375416.800   50.966879629   11.609110282   357.7197   1   6   0.0079   0.0061   0.0239   0.0011   0.0045  -0.0022   0.80  999.9
1913 375417.000   50.966879667   11.609110132   357.6959   1   6   0.0077   0.0059   0.0236   0.0009   0.0043  -0.0026   0.00  999.9
1913 375417.200   50.966879836   11.609110016   357.6815   1   6   0.0079   0.0060   0.0236   0.0012   0.0044  -0.0023   0.20  999.9
1913 375417.400   50.966879938   11.609109882   357.6413   1   6   0.0078   0.0061   0.0237   0.0011   0.0044  -0.0026   0.40  999.9
1913 375417.600   50.966880132   11.609109772   357.6349   1   6   0.0078   0.0060   0.0238   0.0009   0.0044  -0.0023   0.60  999.9
1913 375417.800   50.966880261   11.609109636   357.6020   1   6   0.0079   0.0061   0.0239   0.0014   0.0045  -0.0023   0.80  999.9
1913 375418.000   50.966880039   11.609109445   357.6276   1   6   0.0079   0.0060   0.0236   0.0012   0.0044  -0.0025   0.00  999.9
1913 375418.200   50.966879935   11.609108654   357.6136   1   6   0.0078   0.0059   0.0237   0.0011   0.0044  -0.0024   0.20  999.9
1913 375418.400   50.966879711   11.609107417   357.6287   1   6   0.0077   0.0060   0.0237   0.0010   0.0044  -0.0025   0.40  999.9
1913 375418.600   50.966879416   11.609106222   357.6426   1   6   0.0078   0.0060   0.0238   0.0009   0.0044  -0.0024   0.60  999.9
1913 375418.800   50.966879181   11.609105936   357.6350   1   6   0.0078   0.0060   0.0239   0.0009   0.0045  -0.0023   0.80  999.9
1913 375419.000   50.966878871   11.609106434   357.6278   1   6   0.0079   0.0060   0.0236   0.0015   0.0044  -0.0023   0.00  999.9
1913 375419.200   50.966878648   11.609107656   357.5809   1   6   0.0078   0.0059   0.0237   0.0010   0.0043  -0.0025   0.20  999.9
1913 375419.400   50.966878268   11.609108185   357.5611   1   6   0.0077   0.0059   0.0237   0.0007   0.0044  -0.0026   0.40  999.9
1913 375419.600   50.966878059   11.609108162   357.5562   1   6   0.0078   0.0060   0.0238   0.0007   0.0044  -0.0024   0.60  999.9
1913 375419.800   50.966877608   11.609107959   357.6011   1   6   0.0080   0.0061   0.0239   0.0012   0.0045  -0.0021   0.80  999.9
1913 375420.000   50.966877380   11.609107616   357.6269   1   6   0.0079   0.0060   0.0236   0.0012   0.0044  -0.0023   0.00  999.9
1913 375420.200   50.966877206   11.609107448   357.6326   1   6   0.0078   0.0060   0.0237   0.0011   0.0044  -0.0026   0.20  999.9
1913 375420.400   50.966877055   11.609107399   357.6457   1   6   0.0078   0.0061   0.0237   0.0014   0.0044  -0.0024   0.40  999.9
1913 375420.600   50.966876866   11.609107391   357.6355   1   6   0.0080   0.0060   0.0238   0.0012   0.0045  -0.0022   0.60  999.9
1913 375420.800   50.966877004   11.609107506   357.6280   1   6   0.0079   0.0061   0.0239   0.0012   0.0045  -0.0022   0.80  999.9
1913 375421.000   50.966877158   11.609107326   357.6241   1   6   0.0078   0.0061   0.0236   0.0015   0.0044  -0.0025   0.00  999.9
1913 375421.200   50.966877150   11.609106843   357.6005   1   6   0.0077   0.0060   0.0237   0.0010   0.0043  -0.0026   0.20  999.9
1913 375421.400   50.966877320   11.609106340   357.5872   1   6   0.0077   0.0060   0.0237   0.0007   0.0044  -0.0026   0.40  999.9
1913 375421.600   50.966877746   11.609105784   357.5612   1   6   0.0079   0.0060   0.0238   0.0013   0.0045  -0.0024   0.60  999.9
1913 375421.800   50.966878080   11.609105867   357.5198   1   6   0.0080   0.0061   0.0239   0.0014   0.0046  -0.0020   0.80  999.9
1913 375422.000   50.966878101   11.609106570   357.4920   1   6   0.0079   0.0060   0.0236   0.0010   0.0044  -0.0023   0.00  999.9
1913 375422.200   50.966877076   11.609105358   357.5233   1   6   0.0077   0.0060   0.0237   0.0010   0.0044  -0.0024   0.20  999.9
1913 375422.400   50.966872071   11.609099104   357.9301   1   6   0.0077   0.0061   0.0237   0.0009   0.0044  -0.0025   0.40  999.9
1913 375422.600   50.966866521   11.609091240   358.3347   1   6   0.0079   0.0061   0.0238   0.0014   0.0045  -0.0022   0.60  999.9
1913 375422.800   50.966860896   11.609081838   358.7101   1   6   0.0079   0.0061   0.0239   0.0016   0.0046  -0.0022   0.80  999.9
1913 375423.000   50.966854414   11.609070728   359.0040   1   6   0.0077   0.0060   0.0237   0.0011   0.0044  -0.0026   0.00  999.9
1913 375423.200   50.966846693   11.609059662   359.3240   1   6   0.0078   0.0060   0.0237   0.0011   0.0044  -0.0025   0.20  999.9
1913 375423.400   50.966837332   11.609049529   359.5882   1   6   0.0079   0.0061   0.0237   0.0015   0.0044  -0.0024   0.40  999.9
1913 375423.600   50.966826087   11.609041582   359.8692   1   6   0.0079   0.0059   0.0238   0.0006   0.0044  -0.0023   0.60  999.9
1913 375423.800   50.966813208   11.609035766   360.1398   1   6   0.0078   0.0061   0.0239   0.0013   0.0045  -0.0022   0.80  999.9
1913 375424.000   50.966798948   11.609030962   360.4614   1   6   0.0078   0.0060   0.0236   0.0008   0.0044  -0.0024   0.00  999.9
1913 375424.200   50.966783629   11.609026002   360.7789   1   6   0.0077   0.0059   0.0237   0.0010   0.0044  -0.0025   0.20  999.9
1913 375424.400   50.966767195   11.609020637   361.1170   1   6   0.0078   0.0060   0.0237   0.0008   0.0044  -0.0025   0.40  999.9
1913 375424.600   50.966749933   11.609014828   361.5325   1   6   0.0079   0.0061   0.0238   0.0013   0.0045  -0.0023   0.60  999.9
1913 375424.800   50.966731900   11.609008542   361.9835   1   6   0.0079   0.0061   0.0239   0.0012   0.0045  -0.0021   0.80  999.9
1913 375425.000   50.966713267   11.609001938   362.5100   1   6   0.0078   0.0061   0.0237   0.0012   0.0044  -0.0025   0.00  999.9
1913 375425.200   50.966694140   11.608995493   363.0917   1   6   0.0079   0.0060   0.0237   0.0014   0.0044  -0.0023   0.20  999.9
1913 375425.400   50.966674667   11.608989334   363.8243   1   6   0.0077   0.0060   0.0237   0.0013   0.0044  -0.0024   0.40  999.9
1913 375425.600   50.966654758   11.608983616   364.5494   1   6   0.0078   0.0060   0.0238   0.0012   0.0045  -0.0023   0.60  999.9
1913 375425.800   50.966634789   11.608978033   365.4085   1   6   0.0079   0.0061   0.0239   0.0009   0.0045  -0.0024   0.80  999.9
1913 375426.000   50.966614644   11.608972678   366.2731   1   6   0.0077   0.0061   0.0237   0.0012   0.0044  -0.0026   0.00  999.9
1913 375426.200   50.966594447   11.608967993   367.1676   1   6   0.0078   0.0060   0.0237   0.0014   0.0044  -0.0024   0.20  999.9
1913 375426.400   50.966574384   11.608964206   368.1454   1   6   0.0080   0.0060   0.0237   0.0014   0.0045  -0.0022   0.40  999.9
1913 375426.600   50.966554263   11.608961070   369.1445   1   6   0.0079   0.0061   0.0238   0.0015   0.0045  -0.0021   0.60  999.9
1913 375426.800   50.966534161   11.608958146   370.1438   1   6   0.0078   0.0061   0.0239   0.0010   0.0045  -0.0023   0.80  999.9
1913 375427.000   50.966513882   11.608955535   371.1495   1   6   0.0078   0.0060   0.0237   0.0008   0.0044  -0.0024   0.00  999.9
1913 375427.200   50.966493665   11.608952976   372.1766   1   6   0.0078   0.0059   0.0237   0.0010   0.0044  -0.0023   0.20  999.9
1913 375427.400   50.966473512   11.608950670   373.1595   1   6   0.0079   0.0061   0.0237   0.0015   0.0045  -0.0022   0.40  999.9
1913 375427.600   50.966453535   11.608948701   374.1109   1   6   0.0078   0.0060   0.0238   0.0012   0.0045  -0.0022   0.60  999.9
1913 375427.800   50.966433966   11.608946913   375.0861   1   6   0.0080   0.0061   0.0239   0.0012   0.0046  -0.0022   0.80  999.9
1913 375428.000   50.966414505   11.608945227   375.9786   1   6   0.0078   0.0060   0.0237   0.0010   0.0044  -0.0025   0.00  999.9
1913 375428.200   50.966395093   11.608943725   376.8467   1   6   0.0079   0.0060   0.0237   0.0009   0.0044  -0.0024   0.20  999.9
1913 375428.400   50.966375934   11.608942096   377.6670   1   6   0.0078   0.0060   0.0237   0.0013   0.0044  -0.0024   0.40  999.9
1913 375428.600   50.966357236   11.608940013   378.4953   1   6   0.0078   0.0060   0.0238   0.0004   0.0045  -0.0024   0.60  999.9
1913 375428.800   50.966339121   11.608937255   379.3333   1   6   0.0078   0.0061   0.0239   0.0009   0.0045  -0.0024   0.80  999.9
1913 375429.000   50.966321585   11.608933831   380.0755   1   6   0.0078   0.0059   0.0237  -0.0003   0.0044  -0.0025   0.00  999.9
1913 375429.200   50.966304779   11.608929781   380.7839   1   6   0.0079   0.0061   0.0237   0.0015   0.0044  -0.0024   0.20  999.9
1913 375429.400   50.966288642   11.608925136   381.4241   1   6   0.0078   0.0060   0.0237   0.0013   0.0045  -0.0023   0.40  999.9
1913 375429.600   50.966273122   11.608919735   381.9539   1   6   0.0078   0.0060   0.0238   0.0011   0.0044  -0.0025   0.60  999.9
1913 375429.800   50.966257965   11.608913763   382.3987   1   6   0.0079   0.0061   0.0239   0.0010   0.0045  -0.0023   0.80  999.9
1913 375430.000   50.966242976   11.608907295   382.7071   1   6   0.0077   0.0059   0.0237   0.0010   0.0044  -0.0024   0.00  999.9
1913 375430.200   50.966228005   11.608900266   382.9471   1   6   0.0078   0.0059   0.0237   0.0010   0.0044  -0.0023   0.20  999.9
1913 375430.400   50.966212924   11.608892301   383.1228   1   6   0.0079   0.0059   0.0237   0.0008   0.0044  -0.0023   0.40  999.9
1913 375430.600   50.966197314   11.608883162   383.2645   1   6   0.0079   0.0061   0.0238   0.0015   0.0045  -0.0023   0.60  999.9
1913 375430.800   50.966181279   11.608872549   383.3723   1   6   0.0078   0.0061   0.0239   0.0002   0.0045  -0.0023   0.80  999.9
1913 375431.000   50.966164632   11.608860403   383.5297   1   6   0.0078   0.0060   0.0237   0.0011   0.0044  -0.0024   0.00  999.9
1913 375431.200   50.966147524   11.608847219   383.8096   1   6   0.0078   0.0060   0.0237   0.0013   0.0044  -0.0025   0.20  999.9
1913 375431.400   50.966130187   11.608832672   384.1841   1   6   0.0078   0.0060   0.0238   0.0015   0.0045  -0.0024   0.40  999.9
1913 375431.600   50.966112885   11.608817355   384.6046   1   6   0.0077   0.0061   0.0238   0.0013   0.0045  -0.0025   0.60  999.9
1913 375431.800   50.966096106   11.608801293   385.1240   1   6   0.0079   0.0061   0.0239   0.0011   0.0046  -0.0022   0.80  999.9
1913 375432.000   50.966079944   11.608784600   385.6539   1   6   0.0078   0.0059   0.0237   0.0008   0.0044  -0.0024   0.00  999.9
1913 375432.200   50.966064327   11.608767228   386.2159   1   6   0.0078   0.0060   0.0237   0.0012   0.0044  -0.0024   0.20  999.9
1913 375432.400   50.966049469   11.608749332   386.7953   1   6   0.0080   0.0061   0.0237   0.0011   0.0045  -0.0023   0.40  999.9
1913 375432.600   50.966035345   11.608731115   387.3320   1   6   0.0077   0.0060   0.0238   0.0009   0.0045  -0.0025   0.60  999.9
1913 375432.800   50.966021653   11.608712895   387.8979   1   6   0.0079   0.0062   0.0239   0.0016   0.0046  -0.0022   0.80  999.9
1913 375433.000   50.966008363   11.608694728   388.4602   1   6   0.0077   0.0060   0.0237   0.0010   0.0044  -0.0026   0.00  999.9
1913 375433.200   50.965995450   11.608676573   388.9697   1   6   0.0077   0.0060   0.0237   0.0006   0.0044  -0.0025   0.20  999.9
1913 375433.400   50.965982797   11.608658656   389.4486   1   6   0.0078   0.0060   0.0238   0.0008   0.0044  -0.0024   0.40  999.9
1913 375433.600   50.965970742   11.608640893   389.9294   1   6   0.0079   0.0061   0.0238   0.0014   0.0045  -0.0023   0.60  999.9
1913 375433.800   50.965959437   11.608623604   390.3751   1   6   0.0079   0.0061   0.0240   0.0013   0.0046  -0.0022   0.80  999.9
1913 375434.000   50.965948736   11.608606427   390.8125   1   6   0.0078   0.0060   0.0237   0.0013   0.0044  -0.0025   0.00  999.9
1913 375434.200   50.965938844   11.608589637   391.1772   1   6   0.0078   0.0060   0.0237   0.0012   0.0044  -0.0024   0.20  999.9
1913 375434.400   50.965929118   11.608573512   391.4668   1   6   0.0079   0.0061   0.0238   0.0016   0.0045  -0.0023   0.40  999.9
1913 375434.600   50.965919341   11.608558172   391.6187   1   6   0.0079   0.0060   0.0238   0.0013   0.0045  -0.0021   0.60  999.9
1913 375434.800   50.965909367   11.608543896   391.7363   1   6   0.0080   0.0061   0.0240   0.0012   0.0046  -0.0021   0.80  999.9
1913 375435.000   50.965899001   11.608530365   391.8139   1   6   0.0078   0.0060   0.0237   0.0014   0.0044  -0.0024   0.00  999.9
1913 375435.200   50.965888337   11.608517250   391.7657   1   6   0.0077   0.0060   0.0237   0.0009   0.0044  -0.0024   0.20  999.9
1913 375435.400   50.965877285   11.608504744   391.6642   1   6   0.0078   0.0060   0.0238   0.0011   0.0044  -0.0024   0.40  999.9
1913 375435.600   50.965866088   11.608492304   391.5322   1   6   0.0077   0.0061   0.0238   0.0010   0.0045  -0.0025   0.60  999.9
1913 375435.800   50.965855001   11.608479104   391.3520   1   6   0.0079   0.0061   0.0240   0.0013   0.0046  -0.0022   0.80  999.9
1913 375436.000   50.965843890   11.608465060   391.1371   1   6   0.0079   0.0060   0.0237   0.0012   0.0044  -0.0023   0.00  999.9
1913 375436.200   50.965832761   11.608450378   390.7870   1   6   0.0078   0.0060   0.0237   0.0009   0.0044  -0.0025   0.20  999.9
1913 375436.400   50.965821570   11.608434927   390.4657   1   6   0.0080   0.0061   0.0238   0.0015   0.0045  -0.0021   0.40  999.9
1913 375436.600   50.965810540   11.608418466   390.1298   1   6   0.0079   0.0061   0.0238   0.0010   0.0045  -0.0023   0.60  999.9
1913 375436.800   50.965799765   11.608400950   389.8047   1   6   0.0080   0.0060   0.0240   0.0011   0.0046  -0.0021   0.80  999.9
1913 375437.000   50.965789247   11.608382389   389.4719   1   6   0.0078   0.0060   0.0237   0.0011   0.0044  -0.0025   0.00  999.9
1913 375437.200   50.965779136   11.608362681   389.2048   1   6   0.0078   0.0060   0.0237   0.0013   0.0044  -0.0025   0.20  999.9
1913 375437.400   50.965769338   11.608342149   388.9891   1   6   0.0079   0.0060   0.0238   0.0010   0.0045  -0.0023   0.40  999.9
1913 375437.600   50.965759905   11.608321126   388.7922   1   6   0.0078   0.0061   0.0239   0.0009   0.0045  -0.0024   0.60  999.9
1913 375437.800   50.965750694   11.608299848   388.6490   1   6   0.0078   0.0061   0.0240   0.0005   0.0046  -0.0022   0.80  999.9
1913 375438.000   50.965741689   11.608278481   388.5380   1   6   0.0079   0.0060   0.0237   0.0010   0.0044  -0.0024   0.00  999.9
1913 375438.200   50.965733005   11.608256683   388.4766   1   6   0.0077   0.0060   0.0237   0.0012   0.0044  -0.0026   0.20  999.9
1913 375438.400   50.965724711   11.608234343   388.4529   1   6   0.0078   0.0060   0.0238   0.0011   0.0045  -0.0023   0.40  999.9
1913 375438.600   50.965716572   11.608211698   388.4703   1   6   0.0078   0.0060   0.0239   0.0011   0.0045  -0.0022   0.60  999.9
1913 375438.800   50.965708506   11.608188842   388.6051   1   6   0.0079   0.0061   0.0240   0.0011   0.0046  -0.0023   0.80  999.9
1913 375439.000   50.965700541   11.608166120   388.8095   1   6   0.0078   0.0060   0.0237   0.0009   0.0044  -0.0025   0.00  999.9
1913 375439.200   50.965692311   11.608143759   389.0886   1   6   0.0078   0.0060   0.0237   0.0012   0.0045  -0.0023   0.20  999.9
1913 375439.400   50.965683955   11.608121821   389.3906   1   6   0.0078   0.0059   0.0238   0.0009   0.0045  -0.0024   0.40  999.9
1913 375439.600   50.965675534   11.608100100   389.6945   1   6   0.0077   0.0060   0.0239   0.0008   0.0045  -0.0024   0.60  999.9
1913 375439.800   50.965667087   11.608078949   389.9856   1   6   0.0079   0.0061   0.0240   0.0011   0.0046  -0.0022   0.80  999.9
1913 375440.000   50.965658484   11.608058419   390.2958   1   6   0.0077   0.0060   0.0237   0.0007   0.0044  -0.0026   0.00  999.9
1913 375440.200   50.965649617   11.608038489   390.5839   1   6   0.0078   0.0060   0.0237   0.0010   0.0044  -0.0024   0.20  999.9
1913 375440.400   50.965640622   11.608019122   390.8546   1   6   0.0078   0.0060   0.0238   0.0009   0.0045  -0.0024   0.40  999.9
1913 375440.600   50.965631598   11.608000091   391.1003   1   6   0.0078   0.0060   0.0239   0.0011   0.0045  -0.0023   0.60  999.9
1913 375440.800   50.965622600   11.607981438   391.3198   1   6   0.0078   0.0061   0.0240   0.0011   0.0046  -0.0022   0.80  999.9
1913 375441.000   50.965613699   11.607962982   391.5088   1   6   0.0077   0.0060   0.0237   0.0006   0.0044  -0.0026   0.00  999.9
1913 375441.200   50.965604625   11.607944910   391.6784   1   6   0.0078   0.0060   0.0237   0.0010   0.0045  -0.0023   0.20  999.9
1913 375441.400   50.965595407   11.607927151   391.7925   1   6   0.0078   0.0060   0.0238   0.0009   0.0044  -0.0024   0.40  999.9
1913 375441.600   50.965586237   11.607909816   391.9067   1   6   0.0079   0.0060   0.0239   0.0011   0.0045  -0.0022   0.60  999.9
1913 375441.800   50.965576907   11.607892849   392.0613   1   6   0.0079   0.0061   0.0240   0.0011   0.0046  -0.0021   0.80  999.9
1913 375442.000   50.965567415   11.607876015   392.1712   1   6   0.0078   0.0060   0.0237   0.0012   0.0044  -0.0024   0.00  999.9
1913 375442.200   50.965557726   11.607859494   392.2258   1   6   0.0078   0.0060   0.0237   0.0011   0.0045  -0.0024   0.20  999.9
1913 375442.400   50.965547937   11.607843060   392.3013   1   6   0.0078   0.0060   0.0238   0.0013   0.0045  -0.0024   0.40  999.9
1913 375442.600   50.965538171   11.607826581   392.3216   1   6   0.0078   0.0061   0.0239   0.0011   0.0045  -0.0024   0.60  999.9
1913 375442.800   50.965528417   11.607809993   392.3283   1   6   0.0078   0.0060   0.0240   0.0008   0.0046  -0.0024   0.80  999.9
1913 375443.000   50.965518547   11.607793594   392.3184   1   6   0.0077   0.0060   0.0237   0.0006   0.0044  -0.0025   0.00  999.9
1913 375443.200   50.965508690   11.607777414   392.3043   1   6   0.0078   0.0060   0.0237   0.0012   0.0044  -0.0024   0.20  999.9
1913 375443.400   50.965498745   11.607761338   392.2957   1   6   0.0078   0.0060   0.0238   0.0011   0.0045  -0.0024   0.40  999.9
1913 375443.600   50.965488813   11.607745303   392.3064   1   6   0.0078   0.0060   0.0239   0.0009   0.0045  -0.0023   0.60  999.9
1913 375443.800   50.965478884   11.607729390   392.3145   1   6   0.0079   0.0061   0.0240   0.0013   0.0046  -0.0022   0.80  999.9
1913 375444.000   50.965469072   11.607713193   392.3284   1   6   0.0077   0.0060   0.0237   0.0005   0.0044  -0.0024   0.00  999.9
1913 375444.200   50.965459279   11.607696955   392.3429   1   6   0.0077   0.0060   0.0237   0.0008   0.0044  -0.0025   0.20  999.9
1913 375444.400   50.965449440   11.607680706   392.3043   1   6   0.0078   0.0061   0.0238   0.0012   0.0045  -0.0023   0.40  999.9
1913 375444.600   50.965439398   11.607664665   392.2950   1   6   0.0079   0.0060   0.0239   0.0009   0.0045  -0.0021   0.60  999.9
1913 375444.800   50.965429307   11.607648735   392.3066   1   6   0.0080   0.0061   0.0240   0.0013   0.0046  -0.0021   0.80  999.9
1913 375445.000   50.965419221   11.607632968   392.3361   1   6   0.0078   0.0060   0.0237   0.0009   0.0044  -0.0024   0.00  999.9
1913 375445.200   50.965409087   11.607617269   392.3823   1   6   0.0078   0.0059   0.0237   0.0005   0.0044  -0.0024   0.20  999.9
1913 375445.400   50.965398951   11.607601739   392.4029   1   6   0.0078   0.0060   0.0238   0.0010   0.0045  -0.0024   0.40  999.9
1913 375445.600   50.965388895   11.607586376   392.4834   1   6   0.0077   0.0061   0.0239   0.0010   0.0045  -0.0024   0.60  999.9
1913 375445.800   50.965378776   11.607571239   392.5451   1   6   0.0078   0.0060   0.0240   0.0010   0.0046  -0.0023   0.80  999.9
1913 375446.000   50.965368600   11.607556295   392.6102   1   6   0.0078   0.0060   0.0237   0.0011   0.0044  -0.0025   0.00  999.9
1913 375446.200   50.965358390   11.607541386   392.6938   1   6   0.0077   0.0060   0.0237   0.0008   0.0045  -0.0025   0.20  999.9
1913 375446.400   50.965348282   11.607526466   392.7611   1   6   0.0079   0.0059   0.0238   0.0008   0.0045  -0.0023   0.40  999.9
1913 375446.600   50.965338231   11.607511401   392.8946   1   6   0.0079   0.0061   0.0239   0.0015   0.0046  -0.0022   0.60  999.9
1913 375446.800   50.965328151   11.607496073   393.0127   1   6   0.0079   0.0060   0.0240   0.0010   0.0046  -0.0022   0.80  999.9
1913 375447.000   50.965317896   11.607480973   393.0818   1   6   0.0077   0.0060   0.0237   0.0014   0.0045  -0.0025   0.00  999.9
1913 375447.200   50.965307490   11.607466314   393.1260   1   6   0.0077   0.0060   0.0237   0.0009   0.0044  -0.0025   0.20  999.9
1913 375447.400   50.965297110   11.607451634   393.2129   1   6   0.0078   0.0060   0.0238   0.0010   0.0045  -0.0023   0.40  999.9
1913 375447.600   50.965286769   11.607437184   393.2594   1   6   0.0078   0.0060   0.0239   0.0011   0.0045  -0.0025   0.60  999.9
1913 375447.800   50.965276076   11.607423353   393.3196   1   6   0.0079   0.0061   0.0240   0.0013   0.0046  -0.0023   0.80  999.9
1913 375448.000   50.965264908   11.607410647   393.4104   1   6   0.0078   0.0060   0.0237   0.0010   0.0044  -0.0025   0.00  999.9
1913 375448.200   50.965253038   11.607399511   393.5454   1   6   0.0078   0.0060   0.0237   0.0013   0.0045  -0.0024   0.20  999.9
1913 375448.400   50.965240315   11.607390385   393.7346   1   6   0.0078   0.0060   0.0238   0.0012   0.0045  -0.0023   0.40  999.9
1913 375448.600   50.965226966   11.607383952   393.9871   1   6   0.0078   0.0061   0.0239   0.0011   0.0046  -0.0023   0.60  999.9
1913 375448.800   50.965213450   11.607380342   394.3284   1   6   0.0079   0.0061   0.0240   0.0007   0.0046  -0.0023   0.80  999.9
1913 375449.000   50.965199881   11.607379279   394.7111   1   6   0.0077   0.0059   0.0237   0.0011   0.0045  -0.0024   0.00  999.9
1913 375449.200   50.965186505   11.607380615   395.1020   1   6   0.0078   0.0061   0.0237   0.0009   0.0045  -0.0024   0.20  999.9
1913 375449.400   50.965173326   11.607384032   395.4802   1   6   0.0078   0.0060   0.0238   0.0006   0.0045  -0.0025   0.40  999.9
1913 375449.600   50.965160372   11.607389373   395.8448   1   6   0.0078   0.0060   0.0239   0.0008   0.0045  -0.0023   0.60  999.9
1913 375449.800   50.965147610   11.607396386   396.1635   1   6   0.0078   0.0061   0.0240   0.0008   0.0046  -0.0023   0.80  999.9
1913 375450.000   50.965135131   11.607405477   396.4443   1   6   0.0077   0.0059   0.0237   0.0011   0.0045  -0.0024   0.00  999.9
1913 375450.200   50.965123011   11.607416765   396.7028   1   6   0.0078   0.0060   0.0238   0.0008   0.0044  -0.0025   0.20  999.9
1913 375450.400   50.965111276   11.607430020   396.9495   1   6   0.0077   0.0060   0.0238   0.0011   0.0045  -0.0024   0.40  999.9
1913 375450.600   50.965099805   11.607445247   397.0760   1   6   0.0078   0.0060   0.0239   0.0011   0.0046  -0.0022   0.60  999.9
1913 375450.800   50.965088837   11.607462124   397.2106   1   6   0.0080   0.0061   0.0240   0.0015   0.0046  -0.0022   0.80  999.9
1913 375451.000   50.965078553   11.607481192   397.2520   1   6   0.0078   0.0060   0.0237   0.0010   0.0045  -0.0023   0.00  999.9
1913 375451.200   50.965069197   11.607502304   397.2579   1   6   0.0079   0.0060   0.0237   0.0012   0.0045  -0.0023   0.20  999.9
1913 375451.400   50.965060621   11.607525467   397.2631   1   6   0.0079   0.0060   0.0238   0.0014   0.0045  -0.0022   0.40  999.9
1913 375451.600   50.965053110   11.607550925   397.2422   1   6   0.0078   0.0060   0.0239   0.0011   0.0046  -0.0022   0.60  999.9
1913 375451.800   50.965046394   11.607577975   397.1841   1   6   0.0079   0.0061   0.0240   0.0011   0.0046  -0.0022   0.80  999.9
1913 375452.000   50.965041112   11.607607169   397.1052   1   6   0.0078   0.0059   0.0237   0.0007   0.0044  -0.0024   0.00  999.9
1913 375452.200   50.965036881   11.607637715   397.0877   1   6   0.0079   0.0060   0.0238   0.0012   0.0045  -0.0024   0.20  999.9
1913 375452.400   50.965034047   11.607669662   397.0561   1   6   0.0079   0.0060   0.0238   0.0012   0.0045  -0.0023   0.40  999.9
1913 375452.600   50.965032603   11.607702952   396.9910   1   6   0.0078   0.0061   0.0239   0.0012   0.0046  -0.0023   0.60  999.9
1913 375452.800   50.965032842   11.607737144   396.9705   1   6   0.0079   0.0061   0.0240   0.0010   0.0046  -0.0022   0.80  999.9
1913 375453.000   50.965034831   11.607772219   396.9437   1   6   0.0077   0.0060   0.0237   0.0010   0.0045  -0.0025   0.00  999.9
1913 375453.200   50.965038550   11.607807908   396.9296   1   6   0.0079   0.0060   0.0238   0.0010   0.0045  -0.0023   0.20  999.9
1913 375453.400   50.965043780   11.607844130   396.9290   1   6   0.0078   0.0060   0.0238   0.0006   0.0045  -0.0024   0.40  999.9
1913 375453.600   50.965050407   11.607880692   396.9534   1   6   0.0078   0.0060   0.0239   0.0008   0.0046  -0.0023   0.60  999.9
1913 375453.800   50.965058378   11.607917286   397.0035   1   6   0.0078   0.0060   0.0240   0.0008   0.0046  -0.0022   0.80  999.9
1913 375454.000   50.965067386   11.607953974   397.0653   1   6   0.0076   0.0059   0.0238   0.0009   0.0044  -0.0026   0.00  999.9
1913 375454.200   50.965077561   11.607990560   397.1557   1   6   0.0079   0.0060   0.0238   0.0006   0.0045  -0.0025   0.20  999.9
1913 375454.400   50.965088508   11.608027147   397.2609   1   6   0.0078   0.0061   0.0238   0.0011   0.0045  -0.0023   0.40  999.9
1913 375454.600   50.965100109   11.608063482   397.3931   1   6   0.0078   0.0060   0.0239   0.0008   0.0046  -0.0024   0.60  999.9
1913 375454.800   50.965112240   11.608099664   397.5742   1   6   0.0078   0.0061   0.0240   0.0009   0.0046  -0.0023   0.80  999.9
1913 375455.000   50.965124760   11.608135728   397.7553   1   6   0.0078   0.0060   0.0238   0.0011   0.0045  -0.0024   0.00  999.9
1913 375455.200   50.965137576   11.608171452   397.8936   1   6   0.0079   0.0061   0.0238   0.0009   0.0045  -0.0023   0.20  999.9
1913 375455.400   50.965150391   11.608207038   398.0617   1   6   0.0077   0.0059   0.0238   0.0010   0.0045  -0.0024   0.40  999.9
1913 375455.600   50.965163210   11.608242454   398.2532   1   6   0.0077   0.0061   0.0239   0.0009   0.0045  -0.0024   0.60  999.9
1913 375455.800   50.965175910   11.608277923   398.3965   1   6   0.0079   0.0061   0.0240   0.0010   0.0046  -0.0021   0.80  999.9
1913 375456.000   50.965188498   11.608313460   398.5024   1   6   0.0077   0.0061   0.0238   0.0011   0.0045  -0.0025   0.00  999.9
1913 375456.200   50.965201032   11.608349025   398.6096   1   6   0.0078   0.0060   0.0238   0.0009   0.0045  -0.0025   0.20  999.9
1913 375456.400   50.965213573   11.608384674   398.7064   1   6   0.0077   0.0060   0.0238   0.0011   0.0045  -0.0024   0.40  999.9
1913 375456.600   50.965225821   11.608420462   398.7592   1   6   0.0078   0.0060   0.0239  -0.0004   0.0046  -0.0024   0.60  999.9
1913 375456.800   50.965238208   11.608456249   398.8176   1   6   0.0079   0.0061   0.0240   0.0013   0.0046  -0.0022   0.80  999.9
1913 375457.000   50.965250603   11.608492235   398.8703   1   6   0.0077   0.0060   0.0238   0.0010   0.0044  -0.0025   0.00  999.9
1913 375457.200   50.965263163   11.608528393   398.9297   1   6   0.0078   0.0060   0.0238   0.0009   0.0045  -0.0024   0.20  999.9
1913 375457.400   50.965275780   11.608564510   399.0085   1   6   0.0077   0.0060   0.0238   0.0009   0.0045  -0.0024   0.40  999.9
1913 375457.600   50.965288394   11.608600980   399.1076   1   6   0.0078   0.0060   0.0239   0.0010   0.0046  -0.0023   0.60  999.9
1913 375457.800   50.965301028   11.608637287   399.1996   1   6   0.0079   0.0061   0.0240   0.0011   0.0046  -0.0022   0.80  999.9
1913 375458.000   50.965313465   11.608673724   399.3090   1   6   0.0078   0.0060   0.0238   0.0011   0.0045  -0.0024   0.00  999.9
1913 375458.200   50.965325717   11.608710057   399.4335   1   6   0.0078   0.0060   0.0238   0.0013   0.0045  -0.0023   0.20  999.9
1913 375458.400   50.965337932   11.608746522   399.5633   1   6   0.0077   0.0061   0.0238   0.0009   0.0045  -0.0025   0.40  999.9
1913 375458.600   50.965350113   11.608782896   399.6976   1   6   0.0079   0.0060   0.0239   0.0007   0.0046  -0.0023   0.60  999.9
1913 375458.800   50.965362115   11.608819271   399.8359   1   6   0.0078   0.0061   0.0240   0.0009   0.0046  -0.0023   0.80  999.9
1913 375459.000   50.965374056   11.608855822   399.9617   1   6   0.0077   0.0061   0.0238   0.0010   0.0045  -0.0025   0.00  999.9
1913 375459.200   50.965385938   11.608892379   400.0770   1   6   0.0079   0.0061   0.0238   0.0012   0.0045  -0.0022   0.20  999.9
1913 375459.400   50.965397573   11.608929278   400.1516   1   6   0.0078   0.0060   0.0238   0.0007   0.0045  -0.0024   0.40  999.9
1913 375459.600   50.965409049   11.608966332   400.1858   1   6   0.0078   0.0060   0.0239   0.0005   0.0046  -0.0023   0.60  999.9
1913 375459.800   50.965420586   11.609003134   400.2248   1   6   0.0079   0.0061   0.0240   0.0013   0.0047  -0.0021   0.80  999.9
1913 375460.000   50.965432134   11.609040010   400.2019   1   6   0.0078   0.0060   0.0238   0.0011   0.0045  -0.0024   0.00  999.9
1913 375460.200   50.965443827   11.609076936   400.1513   1   6   0.0078   0.0060   0.0238   0.0013   0.0045  -0.0023   0.20  999.9
1913 375460.400   50.965455410   11.609113824   400.1277   1   6   0.0078   0.0060   0.0238   0.0006   0.0045  -0.0024   0.40  999.9
1913 375460.600   50.965466676   11.609150795   400.0829   1   6   0.0078   0.0060   0.0239   0.0011   0.0046  -0.0023   0.60  999.9
1913 375460.800   50.965477572   11.609188152   400.0512   1   6   0.0079   0.0061   0.0240   0.0013   0.0047  -0.0022   0.80  999.9
1913 375461.000   50.965488134   11.609225686   399.9959   1   6   0.0078   0.0060   0.0238   0.0011   0.0045  -0.0024   0.00  999.9
1913 375461.200   50.965498584   11.609263262   399.9584   1   6   0.0078   0.0060   0.0238   0.0009   0.0045  -0.0023   0.20  999.9
1913 375461.400   50.965509121   11.609301016   399.9384   1   6   0.0078   0.0060   0.0238   0.0009   0.0045  -0.0023   0.40  999.9
1913 375461.600   50.965519580   11.609339030   399.8694   1   6   0.0080   0.0060   0.0239   0.0013   0.0046  -0.0020   0.60  999.9
1913 375461.800   50.965530086   11.609376792   399.8591   1   6   0.0078   0.0061   0.0240   0.0014   0.0047  -0.0022   0.80  999.9
1913 375462.000   50.965540409   11.609414554   399.8596   1   6   0.0078   0.0060   0.0238   0.0012   0.0045  -0.0024   0.00  999.9
1913 375462.200   50.965550559   11.609452007   399.8571   1   6   0.0077   0.0060   0.0238   0.0010   0.0045  -0.0024   0.20  999.9
1913 375462.400   50.965560351   11.609489315   399.8937   1   6   0.0078   0.0059   0.0238   0.0011   0.0045  -0.0023   0.40  999.9
1913 375462.600   50.965569789   11.609526455   399.9505   1   6   0.0078   0.0060   0.0239   0.0006   0.0046  -0.0023   0.60  999.9
1913 375462.800   50.965578928   11.609563312   400.0368   1   6   0.0079   0.0061   0.0240   0.0008   0.0047  -0.0021   0.80  999.9
1913 375463.000   50.965587773   11.609599855   400.1188   1   6   0.0077   0.0061   0.0238   0.0011   0.0045  -0.0026   0.00  999.9
1913 375463.200   50.965596496   11.609636384   400.1971   1   6   0.0077   0.0061   0.0238   0.0008   0.0045  -0.0023   0.20  999.9
1913 375463.400   50.965605160   11.609672598   400.2687   1   6   0.0078   0.0061   0.0238   0.0010   0.0046  -0.0022   0.40  999.9
1913 375463.600   50.965613779   11.609708832   400.3638   1   6   0.0078   0.0060   0.0239   0.0009   0.0046  -0.0023   0.60  999.9
1913 375463.800   50.965622146   11.609744991   400.4219   1   6   0.0079   0.0061   0.0240   0.0010   0.0047  -0.0021   0.80  999.9
1913 375464.000   50.965630588   11.609781210   400.4497   1   6   0.0077   0.0060   0.0238   0.0012   0.0045  -0.0025   0.00  999.9
1913 375464.200   50.965639035   11.609817650   400.4944   1   6   0.0078   0.0061   0.0238   0.0011   0.0045  -0.0024   0.20  999.9
1913 375464.400   50.965647338   11.609854011   400.5305   1   6   0.0078   0.0061   0.0238   0.0008   0.0046  -0.0023   0.40  999.9
1913 375464.600   50.965655442   11.609890653   400.5880   1   6   0.0079   0.0061   0.0239   0.0013   0.0046  -0.0022   0.60  999.9
1913 375464.800   50.965663243   11.609927346   400.6347   1   6   0.0079   0.0061   0.0241   0.0011   0.0047  -0.0022   0.80  999.9
1913 375465.000   50.965671033   11.609964159   400.7224   1   6   0.0079   0.0060   0.0238   0.0013   0.0045  -0.0023   0.00  999.9
1913 375465.200   50.965678787   11.610001081   400.7462   1   6   0.0078   0.0060   0.0238   0.0007   0.0045  -0.0024   0.20  999.9
1913 375465.400   50.965686609   11.610038197   400.7853   1   6   0.0079   0.0061   0.0239   0.0010   0.0046  -0.0022   0.40  999.9
1913 375465.600   50.965694312   11.610075194   400.8024   1   6   0.0079   0.0060   0.0239   0.0007   0.0046  -0.0022   0.60  999.9
1913 375465.800   50.965702088   11.610112230   400.8699   1   6   0.0079   0.0061   0.0240   0.0009   0.0047  -0.0023   0.80  999.9
1913 375466.000   50.965709848   11.610149045   400.9431   1   6   0.0077   0.0060   0.0238   0.0002   0.0045  -0.0024   0.00  999.9
1913 375466.200   50.965717648   11.610186136   401.0483   1   6   0.0077   0.0060   0.0238   0.0008   0.0045  -0.0024   0.20  999.9
1913 375466.400   50.965725757   11.610223189   401.1627   1   6   0.0078   0.0061   0.0239   0.0010   0.0046  -0.0023   0.40  999.9
1913 375466.600   50.965733977   11.610260292   401.2791   1   6   0.0078   0.0061   0.0239   0.0010   0.0046  -0.0022   0.60  999.9
1913 375466.800   50.965742244   11.610297244   401.4684   1   6   0.0078   0.0060   0.0241   0.0007   0.0047  -0.0024   0.80  999.9
1913 375467.000   50.965750207   11.610334106   401.6397   1   6   0.0077   0.0060   0.0238   0.0012   0.0046  -0.0023   0.00  999.9
1913 375467.200   50.965757817   11.610370935   401.7907   1   6   0.0079   0.0060   0.0238   0.0012   0.0045  -0.0024   0.20  999.9
1913 375467.400   50.965765137   11.610407765   401.9189   1   6   0.0079   0.0060   0.0239   0.0010   0.0046  -0.0023   0.40  999.9
1913 375467.600   50.965772343   11.610444617   402.0587   1   6   0.0078   0.0061   0.0239   0.0010   0.0046  -0.0024   0.60  999.9
1913 375467.800   50.965779476   11.610481310   402.1656   1   6   0.0079   0.0061   0.0241   0.0012   0.0047  -0.0022   0.80  999.9
1913 375468.000   50.965786691   11.610518026   402.2715   1   6   0.0078   0.0060   0.0238   0.0010   0.0045  -0.0024   0.00  999.9
1913 375468.200   50.965793843   11.610554607   402.3919   1   6   0.0080   0.0060   0.0238   0.0010   0.0046  -0.0021   0.20  999.9
1913 375468.400   50.965800889   11.610591157   402.5260   1   6   0.0078   0.0060   0.0239   0.0005   0.0045  -0.0024   0.40  999.9
1913 375468.600   50.965807846   11.610627699   402.6734   1   6   0.0078   0.0060   0.0239   0.0012   0.0046  -0.0023   0.60  999.9
1913 375468.800   50.965814680   11.610664013   402.8311   1   6   0.0079   0.0061   0.0241   0.0012   0.0047  -0.0021   0.80  999.9
1913 375469.000   50.965821619   11.610700260   402.9840   1   6   0.0078   0.0060   0.0238   0.0006   0.0045  -0.0024   0.00  999.9
1913 375469.200   50.965828610   11.610736399   403.1641   1   6   0.0079   0.0060   0.0238   0.0012   0.0046  -0.0022   0.20  999.9
1913 375469.400   50.965835493   11.610772388   403.3175   1   6   0.0076   0.0060   0.0239   0.0006   0.0045  -0.0026   0.40  999.9
1913 375469.600   50.965842115   11.610808132   403.4255   1   6   0.0080   0.0061   0.0239   0.0015   0.0047  -0.0021   0.60  999.9
1913 375469.800   50.965848930   11.610843706   403.5139   1   6   0.0079   0.0060   0.0241   0.0009   0.0047  -0.0022   0.80  999.9
1913 375470.000   50.965855889   11.610879497   403.5584   1   6   0.0078   0.0061   0.0238   0.0013   0.0045  -0.0024   0.00  999.9
1913 375470.200   50.965862804   11.610914822   403.6078   1   6   0.0078   0.0061   0.0238   0.0016   0.0046  -0.0022   0.20  999.9
1913 375470.400   50.965869618   11.610950160   403.6681   1   6   0.0078   0.0061   0.0239   0.0012   0.0046  -0.0023   0.40  999.9
1913 375470.600   50.965876234   11.610985517   403.7755   1   6   0.0078   0.0060   0.0239   0.0007   0.0046  -0.0022   0.60  999.9
1913 375470.800   50.965882711   11.611020591   403.8563   1   6   0.0078   0.0061   0.0241   0.0010   0.0047  -0.0022   0.80  999.9
1913 375471.000   50.965889212   11.611055825   403.9887   1   6   0.0079   0.0060   0.0238   0.0012   0.0045  -0.0021   0.00  999.9
1913 375471.200   50.965895661   11.611090960   404.1050   1   6   0.0078   0.0060   0.0238   0.0010   0.0046  -0.0023   0.20  999.9
1913 375471.400   50.965901982   11.611126093   404.2165   1   6   0.0078   0.0060   0.0239   0.0010   0.0046  -0.0024   0.40  999.9
1913 375471.600   50.965908474   11.611161422   404.3392   1   6   0.0078   0.0061   0.0240   0.0010   0.0046  -0.0023   0.60  999.9
1913 375471.800   50.965915227   11.611196688   404.4623   1   6   0.0078   0.0061   0.0241   0.0008   0.0047  -0.0023   0.80  999.9
1913 375472.000   50.965922373   11.611232182   404.5204   1   6   0.0078   0.0060   0.0238   0.0011   0.0045  -0.0023   0.00  999.9
1913 375472.200   50.965929811   11.611267746   404.6133   1   6   0.0078   0.0060   0.0238   0.0008   0.0045  -0.0024   0.20  999.9
1913 375472.400   50.965937233   11.611303578   404.6496   1   6   0.0078   0.0060   0.0239   0.0011   0.0046  -0.0023   0.40  999.9
1913 375472.600   50.965944840   11.611339730   404.6844   1   6   0.0078   0.0060   0.0240   0.0011   0.0046  -0.0022   0.60  999.9
1913 375472.800   50.965952462   11.611376258   404.6751   1   6   0.0078   0.0061   0.0241   0.0008   0.0047  -0.0023   0.80  999.9
1913 375473.000   50.965959955   11.611413028   404.6925   1   6   0.0077   0.0060   0.0238   0.0010   0.0046  -0.0024   0.00  999.9
1913 375473.200   50.965967361   11.611449964   404.6945   1   6   0.0077   0.0059   0.0238   0.0002   0.0045  -0.0025   0.20  999.9
1913 375473.400   50.965974682   11.611486834   404.7064   1   6   0.0078   0.0060   0.0239   0.0010   0.0046  -0.0025   0.40  999.9
1913 375473.600   50.965981938   11.611523712   404.7700   1   6   0.0079   0.0060   0.0240   0.0012   0.0046  -0.0023   0.60  999.9
1913 375473.800   50.965989184   11.611560584   404.8303   1   6   0.0079   0.0060   0.0241   0.0010   0.0047  -0.0022   0.80  999.9
1913 375474.000   50.965996576   11.611597349   404.9474   1   6   0.0078   0.0061   0.0238   0.0013   0.0046  -0.0024   0.00  999.9
1913 375474.200   50.966003732   11.611634226   405.0475   1   6   0.0076   0.0060   0.0238  -0.0005   0.0045  -0.0025   0.20  999.9
1913 375474.400   50.966010812   11.611670991   405.1529   1   6   0.0078   0.0060   0.0239   0.0011   0.0046  -0.0022   0.40  999.9
1913 375474.600   50.966017624   11.611707597   405.2547   1   6   0.0077   0.0060   0.0240   0.0007   0.0046  -0.0024   0.60  999.9
1913 375474.800   50.966024405   11.611744302   405.3854   1   6   0.0079   0.0061   0.0241   0.0010   0.0047  -0.0022   0.80  999.9
1913 375475.000   50.966031131   11.611780868   405.5132   1   6   0.0078   0.0060   0.0238   0.0008   0.0046  -0.0022   0.00  999.9
1913 375475.200   50.966037888   11.611817676   405.6545   1   6   0.0078   0.0060   0.0238   0.0011   0.0045  -0.0024   0.20  999.9
1913 375475.400   50.966044646   11.611854231   405.7735   1   6   0.0076   0.0060   0.0239   0.0005   0.0046  -0.0025   0.40  999.9
1913 375475.600   50.966051525   11.611891005   405.8853   1   6   0.0078   0.0060   0.0240   0.0008   0.0046  -0.0023   0.60  999.9
1913 375475.800   50.966058509   11.611927734   405.9789   1   6   0.0078   0.0061   0.0241   0.0010   0.0047  -0.0023   0.80  999.9
1913 375476.000   50.966065508   11.611964435   406.0392   1   6   0.0077   0.0060   0.0238   0.0009   0.0046  -0.0024   0.00  999.9
1913 375476.200   50.966072504   11.612001225   406.1279   1   6   0.0079   0.0061   0.0238   0.0013   0.0046  -0.0022   0.20  999.9
1913 375476.400   50.966079294   11.612038104   406.1810   1   6   0.0078   0.0061   0.0239   0.0013   0.0046  -0.0023   0.40  999.9
1913 375476.600   50.966086071   11.612074846   406.2315   1   6   0.0079   0.0061   0.0240   0.0012   0.0047  -0.0021   0.60  999.9
1913 375476.800   50.966092683   11.612111535   406.3089   1   6   0.0078   0.0061   0.0241   0.0011   0.0047  -0.0022   0.80  999.9
1913 375477.000   50.966099156   11.612148200   406.3499   1   6   0.0078   0.0060   0.0238   0.0010   0.0046  -0.0023   0.00  999.9
1913 375477.200   50.966105523   11.612184632   406.3921   1   6   0.0077   0.0060   0.0238   0.0003   0.0045  -0.0024   0.20  999.9
1913 375477.400   50.966111732   11.612220654   406.4930   1   6   0.0077   0.0060   0.0239   0.0009   0.0046  -0.0024   0.40  999.9
1913 375477.600   50.966117827   11.612256428   406.5774   1   6   0.0078   0.0059   0.0240  -0.0005   0.0046  -0.0024   0.60  999.9
1913 375477.800   50.966123791   11.612291710   406.6134   1   6   0.0079   0.0061   0.0241   0.0007   0.0047  -0.0021   0.80  999.9
1913 375478.000   50.966129777   11.612326701   406.6493   1   6   0.0078   0.0060   0.0238   0.0011   0.0046  -0.0023   0.00  999.9
1913 375478.200   50.966135947   11.612361632   406.6734   1   6   0.0077   0.0060   0.0238   0.0007   0.0045  -0.0025   0.20  999.9
1913 375478.400   50.966142189   11.612396499   406.6401   1   6   0.0077   0.0060   0.0239   0.0008   0.0046  -0.0024   0.40  999.9
1913 375478.600   50.966148627   11.612431571   406.6098   1   6   0.0079   0.0061   0.0240   0.0012   0.0047  -0.0023   0.60  999.9
1913 375478.800   50.966155306   11.612466570   406.5382   1   6   0.0078   0.0060   0.0241   0.0004   0.0047  -0.0021   0.80  999.9
1913 375479.000   50.966162561   11.612502284   406.3883   1   6   0.0077   0.0060   0.0238   0.0012   0.0046  -0.0024   0.00  999.9
1913 375479.200   50.966170803   11.612538116   406.1235   1   6   0.0078   0.0060   0.0238   0.0009   0.0046  -0.0024   0.20  999.9
1913 375479.400   50.966180667   11.612573862   405.8801   1   6   0.0078   0.0060   0.0239   0.0009   0.0046  -0.0023   0.40  999.9
1913 375479.600   50.966191942   11.612609390   405.6105   1   6   0.0078   0.0060   0.0240   0.0010   0.0046  -0.0024   0.60  999.9
1913 375479.800   50.966205109   11.612644378   405.3351   1   6   0.0080   0.0061   0.0241   0.0009   0.0047  -0.0019   0.80  999.9
1913 375480.000   50.966220453   11.612677764   405.0447   1   6   0.0077   0.0060   0.0238   0.0005   0.0045  -0.0025   0.00  999.9
1913 375480.200   50.966238769   11.612707847   404.7731   1   6   0.0078   0.0060   0.0238   0.0009   0.0045  -0.0024   0.20  999.9
1913 375480.400   50.966264867   11.612726761   405.8673   1   6   0.0078   0.0060   0.0239   0.0012   0.0046  -0.0023   0.40  999.9
1913 375480.600   50.966288505   11.612750260   405.3494   1   6   0.0078   0.0061   0.0240   0.0010   0.0047  -0.0023   0.60  999.9
1913 375480.800   50.966312363   11.612773068   404.0970   1   6   0.0081   0.0061   0.0241   0.0015   0.0048  -0.0020   0.80  999.9
1913 375481.000   50.966340368   11.612787245   403.4513   1   6   0.0077   0.0060   0.0238   0.0012   0.0046  -0.0023   0.00  926.8
1913 375481.200   50.966369077   11.612796526   402.6449   1   6   0.0078   0.0060   0.0239   0.0012   0.0046  -0.0024   0.20  635.5
1913 375481.400   50.966398024   11.612797315   402.7940   1   6   0.0078   0.0061   0.0239   0.0009   0.0046  -0.0023   0.40  471.6
1913 375481.600   50.966426659   11.612792898   402.7904   1   6   0.0079   0.0061   0.0240   0.0008   0.0047  -0.0022   0.60  377.9
1913 375481.800   50.966454333   11.612782636   402.9898   1   6   0.0079   0.0061   0.0241   0.0010   0.0047  -0.0022   0.80  323.9
1913 375482.000   50.966481766   11.612768372   402.4696   1   6   0.0079   0.0060   0.0238   0.0010   0.0046  -0.0022   0.00  277.1
1913 375482.200   50.966508857   11.612751013   400.8568   1   6   0.0077   0.0060   0.0239   0.0011   0.0046  -0.0023   0.20  223.1
1913 375482.400   50.966531165   11.612727015   400.7336   1   6   0.0078   0.0060   0.0239   0.0007   0.0046  -0.0023   0.40  183.9
1913 375482.600   50.966548723   11.612697393   401.8572   1   6   0.0077   0.0061   0.0240   0.0009   0.0047  -0.0024   0.60  162.1
1913 375482.800   50.966566109   11.612668076   401.5241   1   6   0.0078   0.0061   0.0241   0.0012   0.0048  -0.0022   0.80  141.8
1913 375483.000   50.966580445   11.612637077   401.7741   1   6   0.0078   0.0060   0.0238   0.0012   0.0046  -0.0023   0.00  124.7
1913 375483.200   50.966592486   11.612605803   402.1353   1   6   0.0078   0.0060   0.0239   0.0010   0.0046  -0.0025   0.20  110.8
1913 375483.400   50.966603111   11.612574761   402.6128   1   6   0.0078   0.0060   0.0239   0.0005   0.0046  -0.0023   0.40   99.2
1913 375483.600   50.966611874   11.612544004   403.1381   1   6   0.0077   0.0061   0.0240   0.0009   0.0046  -0.0025   0.60   89.4
1913 375483.800   50.966618602   11.612514184   403.7469   1   6   0.0079   0.0061   0.0241   0.0009   0.0047  -0.0021   0.80   81.0
1913 375484.000   50.966623802   11.612485084   404.3836   1   6   0.0078   0.0060   0.0238   0.0014   0.0046  -0.0023   0.00   73.7
1913 375484.200   50.966627680   11.612457173   405.0084   1   6   0.0076   0.0060   0.0239   0.0007   0.0046  -0.0025   0.20   67.4
1913 375484.400   50.966630355   11.612430321   405.6274   1   6   0.0078   0.0060   0.0239   0.0009   0.0046  -0.0023   0.40   61.8
1913 375484.600   50.966632387   11.612404331   406.1990   1   6   0.0077   0.0060   0.0240   0.0003   0.0046  -0.0024   0.60   57.0
1913 375484.800   50.966633445   11.612379249   406.7475   1   6   0.0079   0.0061   0.0241   0.0007   0.0047  -0.0019   0.80   52.8
1913 375485.000   50.966633704   11.612354880   407.2563   1   6   0.0077   0.0060   0.0239   0.0008   0.0046  -0.0025   0.00   49.0
1913 375485.200   50.966633044   11.612331165   407.6907   1   6   0.0077   0.0059   0.0239  -0.0008   0.0045  -0.0025   0.20   45.6
1913 375485.400   50.966631853   11.612307987   408.0819   1   6   0.0078   0.0059   0.0239  -0.0006   0.0046  -0.0024   0.40   42.3
1913 375485.600   50.966629941   11.612285533   408.4337   1   6   0.0079   0.0061   0.0240   0.0010   0.0047  -0.0022   0.60   39.3
1913 375485.800   50.966627578   11.612263517   408.7387   1   6   0.0079   0.0061   0.0241   0.0011   0.0047  -0.0022   0.80   36.6
1913 375486.000   50.966624582   11.612241789   409.0013   1   6   0.0079   0.0061   0.0238   0.0010   0.0046  -0.0021   0.00   34.1
1913 375486.200   50.966621118   11.612220383   409.1956   1   6   0.0078   0.0061   0.0239   0.0004   0.0046  -0.0023   0.20   31.8
1913 375486.400   50.966617236   11.612199162   409.3505   1   6   0.0078   0.0060   0.0239   0.0010   0.0046  -0.0023   0.40   29.8
1913 375486.600   50.966612838   11.612178057   409.4751   1   6   0.0078   0.0060   0.0240   0.0010   0.0047  -0.0022   0.60   28.0
1913 375486.800   50.966608051   11.612157159   409.5596   1   6   0.0079   0.0061   0.0241   0.0008   0.0047  -0.0021   0.80   26.4
1913 375487.000   50.966602852   11.612136260   409.6379   1   6   0.0077   0.0060   0.0239   0.0009   0.0046  -0.0024   0.00   24.8
1913 375487.200   50.966597211   11.612115525   409.6903   1   6   0.0079   0.0059   0.0239   0.0004   0.0046  -0.0024   0.20   23.4
1913 375487.400   50.966591269   11.612094965   409.7118   1   6   0.0078   0.0060   0.0239   0.0008   0.0046  -0.0023   0.40   22.1
1913 375487.600   50.966584964   11.612074563   409.7681   1   6   0.0078   0.0060   0.0240  -0.0007   0.0047  -0.0023   0.60   21.0
1913 375487.800   50.966578360   11.612054120   409.8203   1   6   0.0078   0.0061   0.0241   0.0005   0.0047  -0.0022   0.80   19.9
1913 375488.000   50.966571299   11.612033669   409.8690   1   6   0.0078   0.0061   0.0239   0.0013   0.0046  -0.0023   0.00   18.9
1913 375488.200   50.966563937   11.612013251   409.8912   1   6   0.0076   0.0060   0.0239  -0.0008   0.0045  -0.0027   0.20   17.9
1913 375488.400   50.966556260   11.611992898   409.9004   1   6   0.0077   0.0060   0.0239  -0.0004   0.0046  -0.0024   0.40   17.0
1913 375488.600   50.966548742   11.611972155   409.8732   1   6   0.0078   0.0061   0.0240   0.0003   0.0047  -0.0023   0.60   16.2
1913 375488.800   50.966541495   11.611951027   409.8837   1   6   0.0076   0.0061   0.0241  -0.0007   0.0047  -0.0024   0.80   15.5
1913 375489.000   50.966534352   11.611929362   409.8989   1   6   0.0078   0.0060   0.0239   0.0012   0.0046  -0.0021   0.00   14.8
1913 375489.200   50.966527478   11.611907031   409.9064   1   6   0.0078   0.0060   0.0239   0.0011   0.0046  -0.0024   0.20   14.1
1913 375489.400   50.966520892   11.611884196   409.9220   1   6   0.0078   0.0061   0.0239   0.0014   0.0047  -0.0022   0.40   13.5
1913 375489.600   50.966514902   11.611860688   409.9289   1   6   0.0078   0.0060   0.0240   0.0009   0.0047  -0.0022   0.60   12.9
1913 375489.800   50.966509384   11.611836826   409.9828   1   6   0.0078   0.0061   0.0241   0.0009   0.0048  -0.0022   0.80   12.4
1913 375490.000   50.966504232   11.611812535   410.0590   1   6   0.0079   0.0060   0.0239   0.0011   0.0046  -0.0023   0.00   11.9
1913 375490.200   50.966499625   11.611787924   410.1420   1   6   0.0078   0.0060   0.0239   0.0010   0.0046  -0.0024   0.20   11.4
1913 375490.400   50.966495623   11.611762936   410.2519   1   6   0.0077   0.0061   0.0239   0.0007   0.0046  -0.0024   0.40   11.0
1913 375490.600   50.966492454   11.611737842   410.3754   1   6   0.0079   0.0061   0.0240   0.0006   0.0047  -0.0023   0.60   10.6
1913 375490.800   50.966489794   11.611712588   410.5594   1   6   0.0078   0.0060   0.0241   0.0003   0.0047  -0.0023   0.80   10.2
1913 375491.000   50.966487699   11.611687213   410.7622   1   6   0.0078   0.0061   0.0239   0.0009   0.0046  -0.0023   0.00    9.8
1913 375491.200   50.966486230   11.611661852   410.9546   1   6   0.0077   0.0060   0.0239   0.0007   0.0046  -0.0025   0.20    9.4
1913 375491.400   50.966485078   11.611636561   411.1628   1   6   0.0077   0.0061   0.0239   0.0009   0.0047  -0.0023   0.40    9.1
1913 375491.600   50.966484448   11.611611042   411.3448   1   6   0.0077   0.0061   0.0240   0.0011   0.0047  -0.0024   0.60    8.8
1913 375491.800   50.966484430   11.611585383   411.5116   1   6   0.0078   0.0061   0.0241   0.0010   0.0048  -0.0022   0.80    8.5
1913 375492.000   50.966484815   11.611559460   411.6376   1   6   0.0077   0.0060   0.0239   0.0010   0.0046  -0.0024   0.00    8.2
1913 375492.200   50.966485860   11.611533873   411.6500   1   6   0.0076   0.0060   0.0239   0.0009   0.0046  -0.0025   0.20    7.9
1913 375492.400   50.966486938   11.611508021   411.7316   1   6   0.0077   0.0060   0.0239  -0.0003   0.0046  -0.0023   0.40    7.7
1913 375492.600   50.966488007   11.611482268   411.7869   1   6   0.0077   0.0060   0.0240   0.0006   0.0047  -0.0023   0.60    7.4
1913 375492.800   50.966489038   11.611456621   411.8663   1   6   0.0078   0.0062   0.0241   0.0007   0.0047  -0.0023   0.80    7.2
1913 375493.000   50.966489915   11.611431050   411.9418   1   6   0.0077   0.0060   0.0239   0.0007   0.0046  -0.0023   0.00    6.9
1913 375493.200   50.966490661   11.611405227   411.9722   1   6   0.0078   0.0060   0.0239   0.0011   0.0046  -0.0024   0.20    6.7
1913 375493.400   50.966491117   11.611379381   411.9906   1   6   0.0078   0.0061   0.0239   0.0006   0.0047  -0.0022   0.40    6.5
1913 375493.600   50.966491046   11.611353810   412.0201   1   6   0.0078   0.0061   0.0240   0.0011   0.0047  -0.0022   0.60    6.3
1913 375493.800   50.966490545   11.611328286   412.0227   1   6   0.0078   0.0061   0.0241   0.0008   0.0047  -0.0023   0.80    6.1
1913 375494.000   50.966489479   11.611303009   412.0445   1   6   0.0078   0.0060   0.0239   0.0011   0.0046  -0.0022   0.00    5.9
1913 375494.200   50.966487520   11.611278265   412.0622   1   6   0.0077   0.0060   0.0239   0.0008   0.0046  -0.0023   0.20    5.7
1913 375494.400   50.966485113   11.611253698   412.0755   1   6   0.0078   0.0060   0.0239   0.0012   0.0047  -0.0022   0.40    5.6
1913 375494.600   50.966482238   11.611229329   412.0936   1   6   0.0080   0.0060   0.0240   0.0012   0.0047  -0.0020   0.60    5.4
1913 375494.800   50.966478963   11.611205144   412.1242   1   6   0.0079   0.0061   0.0241   0.0012   0.0048  -0.0021   0.80    5.2
1913 375495.000   50.966475244   11.611181087   412.1769   1   6   0.0078   0.0060   0.0239   0.0009   0.0046  -0.0024   0.00    5.1
1913 375495.200   50.966471368   11.611157138   412.1859   1   6   0.0077   0.0060   0.0239   0.0008   0.0046  -0.0023   0.20    4.9
1913 375495.400   50.966467306   11.611133252   412.2364   1   6   0.0079   0.0060   0.0239   0.0011   0.0047  -0.0022   0.40    4.8
1913 375495.600   50.966462888   11.611109444   412.2956   1   6   0.0078   0.0060   0.0240   0.0002   0.0047  -0.0023   0.60    4.7
1913 375495.800   50.966458512   11.611085671   412.3524   1   6   0.0078   0.0061   0.0241   0.0009   0.0048  -0.0022   0.80    4.6
1913 375496.000   50.966454015   11.611062004   412.4591   1   6   0.0077   0.0060   0.0239   0.0003   0.0046  -0.0025   0.00    4.4
1913 375496.200   50.966449583   11.611038370   412.5442   1   6   0.0078   0.0060   0.0239   0.0008   0.0046  -0.0023   0.20    4.3
1913 375496.400   50.966445167   11.611015022   412.6562   1   6   0.0078   0.0061   0.0239   0.0011   0.0047  -0.0022   0.40    4.2
1913 375496.600   50.966440896   11.610991559   412.7331   1   6   0.0078   0.0060   0.0240   0.0009   0.0047  -0.0021   0.60    4.1
1913 375496.800   50.966436714   11.610968261   412.7513   2   6   0.0078   0.0061   0.0242   0.0007   0.0048  -0.0023   0.80    4.0
1913 375497.000   50.966432304   11.610944890   412.7988   2   6   0.0077   0.0059   0.0239   0.0006   0.0046  -0.0024   0.00    3.9
1913 375497.200   50.966428000   11.610921537   412.8449   2   6   0.0079   0.0060   0.0239   0.0009   0.0047  -0.0022   0.20    3.7
1913 375497.400   50.966423307   11.610898223   412.8740   2   6   0.0078   0.0060   0.0240   0.0011   0.0047  -0.0021   0.40    3.6
